[
  { "id": 1, "name": "Operaen", "category": "kultur", "latitude": 59.9075, "longitude": 10.7530 },
  { "id": 2, "name": "Vigelandsparken", "category": "park", "latitude": 59.9270, "longitude": 10.6995 },
  { "id": 3, "name": "Akershus Festning", "category": "landemerke", "latitude": 59.9077, "longitude": 10.7366 },
  { "id": 4, "name": "Munch-museet", "category": "museum", "latitude": 59.9054, "longitude": 10.7528 },
  { "id": 5, "name": "Nasjonalgalleriet", "category": "museum", "latitude": 59.9171, "longitude": 10.7383 },
  { "id": 6, "name": "Rådhuset", "category": "landemerke", "latitude": 59.9113, "longitude": 10.7334 },
  { "id": 7, "name": "Holmenkollbakken", "category": "landemerke", "latitude": 59.9642, "longitude": 10.6669 },
  { "id": 8, "name": "Aker Brygge", "category": "mat_drikke", "latitude": 59.9100, "longitude": 10.7290 },
  { "id": 9, "name": "Grünerløkka Brygge", "category": "mat_drikke", "latitude": 59.9225, "longitude": 10.7580 },
  { "id": 10, "name": "Mathallen Oslo", "category": "mat_drikke", "latitude": 59.9222, "longitude": 10.7539 },
  { "id": 11, "name": "Botanisk hage", "category": "park", "latitude": 59.9148, "longitude": 10.7726 },
  { "id": 12, "name": "Ekeberg Restaurant", "category": "restaurant", "latitude": 59.8993, "longitude": 10.7721 },
  { "id": 13, "name": "Stortinget", "category": "landemerke", "latitude": 59.9127, "longitude": 10.7393 },
  { "id": 14, "name": "Karl Johans gate", "category": "landemerke", "latitude": 59.9138, "longitude": 10.7387 },
  { "id": 15, "name": "Frognerparken", "category": "park", "latitude": 59.9264, "longitude": 10.6975 },
  { "id": 16, "name": "Tjuvholmen", "category": "mat_drikke", "latitude": 59.9083, "longitude": 10.7241 },
  { "id": 17, "name": "Oslofjordmuseet", "category": "museum", "latitude": 59.9055, "longitude": 10.6605 },
  { "id": 18, "name": "Vikingskipshuset", "category": "museum", "latitude": 59.9046, "longitude": 10.6844 },
  { "id": 19, "name": "Norsk Folkemuseum", "category": "museum", "latitude": 59.9031, "longitude": 10.6844 },
  { "id": 20, "name": "Youngstorget", "category": "landemerke", "latitude": 59.9155, "longitude": 10.7490 },
  { "id": 21, "name": "Blå", "category": "bar", "latitude": 59.9213, "longitude": 10.7562 },
  { "id": 22, "name": "Torggata Bad", "category": "bar", "latitude": 59.9165, "longitude": 10.7510 },
  { "id": 23, "name": "Himkok", "category": "bar", "latitude": 59.9160, "longitude": 10.7448 },
  { "id": 24, "name": "Paleet", "category": "mat_drikke", "latitude": 59.9135, "longitude": 10.7378 },
  { "id": 25, "name": "Ekeberg Skulpturpark", "category": "park", "latitude": 59.8985, "longitude": 10.7699 },
  { "id": 26, "name": "Gamle Aker Kirke", "category": "landemerke", "latitude": 59.9247, "longitude": 10.7396 },
  { "id": 27, "name": "Sagene Samfunnshus", "category": "kultur", "latitude": 59.9300, "longitude": 10.7478 },
  { "id": 28, "name": "Vulkan", "category": "mat_drikke", "latitude": 59.9218, "longitude": 10.7528 },
  { "id": 29, "name": "Deichmanske bibliotek", "category": "kultur", "latitude": 59.9073, "longitude": 10.7530 },
  { "id": 30, "name": "Akerselva", "category": "park", "latitude": 59.9265, "longitude": 10.7535 }
]